"Number","Name","Latitude","Longitude","District","Public","Total docks"
"A32019","175 N Harvard St","42.363796","-71.129164","Boston","Yes","18"
"S32035","191 Beacon St","42.38032335045416","-71.10878612855231","Somerville","Yes","19"
"C32094","2 Hummingbird Lane at Olmsted Green","42.28887","-71.095003","Boston","Yes","17"
"S32023","30 Dane St","42.38100143038052","-71.10402522613185","Somerville","Yes","15"
"M32026","359 Broadway - Broadway at Fayette Street","42.370803","-71.104412","Cambridge","Yes","23"
"C32091","645 Summer St","42.341780891371904","-71.03987016504107","Boston","Yes","19"
"M32054","699 Mt Auburn St","42.37500235137831","-71.14871613699506","Cambridge","Yes","25"
"V32001","7 Acre Park","42.41143222973408","-71.06823265090497","Everett","Yes","15"
"B32060","700 Commonwealth Ave.","42.34960945333059","-71.10391523698127","Boston","Yes","12"
"M32060","700 Huron Ave","42.380788172914286","-71.15412890911102","Cambridge","Yes","19"
"M32064","75 Binney St","42.36550728505653","-71.0801375997653","Cambridge","Yes","19"
"M32058","84 Cambridgepark Dr","42.3936","-71.143941","Cambridge","Yes","25"
"C32065","Adams St at Lonsdale St","42.291679428741226","-71.05726346409938","Boston","Yes","0"
"A32032","Airport T Stop - Bremen St at Brooks St","42.374079742097614","-71.03276392826956","Boston","Yes","11"
"C32061","Albany St at E. Brookline St","42.33664795427071","-71.0689445958451","Boston","Yes","15"
"M32046","Alewife MBTA at Steel Place","42.395588457167094","-71.14260613918304","Cambridge","Yes","19"
"M32033","Alewife Station at Russell Field","42.396105","-71.139459","Cambridge","Yes","23"
"C32079","American Legion Hwy at Canterbury St","42.278811581565975","-71.11687703062671","Boston","Yes","15"
"M32059","Ames St at Broadway","42.3636929","-71.0875672","Cambridge","Yes","19"
"M32037","Ames St at Main St","42.3625","-71.08822","Cambridge","Yes","19"
"C32012","Andrew T Stop - Dorchester Ave at Dexter St","42.330473650415165","-71.05701684951782","Boston","Yes","0"
"B32004","Aquarium T Stop - 200 Atlantic Ave","42.35991176110118","-71.0514298081398","Boston","Yes","23"
"D32004","Arch St at Franklin St","42.355335019412564","-71.0582291708306","Boston","Yes","0"
"C32048","Archdale Rd at Washington St","42.29266592872725","-71.12119538714069","Boston","Yes","0"
"W32004","Arsenal Yards","42.36277388549605","-71.15764854490408","Watertown","Yes","11"
"C32062","Ashmont T Stop","42.2856944","-71.0641389","Boston","Yes","15"
"S32018","Assembly Square T","42.392232840046276","-71.07746601104736","Somerville","Yes","15"
"A32003","B.U. Central - 725 Comm. Ave.","42.350406","-71.108279","Boston","Yes","11"
"C32003","Back Bay T Stop - Dartmouth St at Stuart St","42.34807412317439","-71.07657015323639","Boston","Yes","19"
"N32003","Bacon St at Washington St","42.35711920909866","-71.1860453666327","Newton","Yes","11"
"B32055","Bartlett St at John Elliot Sq","42.3294633","-71.0901582","Boston","Yes","15"
"D32024","Beacon St at Charles St","42.356052","-71.069849","Boston","Yes","0"
"B32016","Beacon St at Massachusetts Ave","42.35082680669095","-71.0898108780384","Boston","Yes","0"
"K32015","Beacon St at St. Paul St","42.34373094998716","-71.11614107161584","Brookline","Yes","0"
"K32002","Beacon St at Tappan St","42.33826680058037","-71.13894682028331","Brookline","Yes","15"
"C32059","Belgrade Ave at Walworth St","42.28634589486312","-71.13672129828046","Boston","Yes","15"
"A32028","Bennington St at Byron St","42.383532520117896","-71.01619094610214","Boston","Yes","15"
"A32039","Bennington St at Constitution Beach","42.385223935870535","-71.01063068965232","Boston","Yes","17"
"M32067","Berkshire Street at Cambridge Street","42.37207657915397","-71.08995433905875","Cambridge","Yes","19"
"M32027","Binney St / Sixth St","42.36608797388682","-71.08633603909765","Cambridge","Yes","19"
"C32044","Blue Hill Ave at Almont St","42.274620671812244","-71.09372552493369","Boston","Yes","19"
"C32092","Blue Hill Ave at Havelock St","42.286012","-71.090986","Boston","Yes","18"
"B32057","Blue Hill Ave at Southwood St","42.317860205899876","-71.07798628527235","Boston","Yes","0"
"B32008","Boston City Hall - 28 State St","42.35892","-71.057629","Boston","Yes","21"
"D32018","Boston Convention and Exhibition Center - Summer St at West Side Dr","42.347763454147454","-71.0453599691391","Boston","Yes","23"
"A32036","Boston East - 126 Border St","42.373312125824704","-71.0410200806291","Boston","Yes","15"
"A32045","Boston Landing","42.356560923089404","-71.14167537549292","Boston","Yes","17"
"C32002","Boston Medical Center - E Concord St at Harrison Ave","42.33639915372498","-71.07306711393903","Boston","Yes","19"
"D32044","Boston Public Market","42.36254854409333","-71.0573735833168","Boston","Yes","15"
"B32031","Bowdoin St at Quincy St","42.30785224238503","-71.06512248516083","Boston","Yes","15"
"D32013","Boylston St at Berkeley St","42.3511419825475","-71.07329249382019","Boston","Yes","15"
"D32056","Boylston St at Charles St","42.3525760946701","-71.06764405041758","Boston","Yes","31"
"D32055","Boylston St at Dartmouth St","42.35010609546997","-71.07720464005979","Boston","Yes","0"
"D32046","Boylston St at Exeter St","42.349589423682445","-71.0794677917329","Boston","Yes","19"
"C32008","Boylston St at Fairfield St","42.348762","-71.082383","Boston","Yes","19"
"B32034","Boylston St at Jersey St","42.344650628878306","-71.09732501226972","Boston","Yes","15"
"B32018","Boylston St at Massachusetts Ave","42.34740620525209","-71.08678414955648","Boston","Yes","15"
"B32013","Brigham Circle - Francis St at Huntington Ave","42.33462893055976","-71.10407917767589","Boston","Yes","15"
"D32028","Brighton Center - Washington St at Cambridge St","42.34894857235593","-71.15027189254761","Boston","Yes","17"
"A32005","Brighton Mills - 370 Western Ave","42.3615457081725","-71.13776206970215","Boston","Yes","15"
"V32011","Broadway at Beacham St","42.39836059620832","-71.06373842814719","Everett","Yes","15"
"S32016","Broadway at Central St","42.39517150121575","-71.09850591982195","Somerville","Yes","15"
"L32004","Broadway at Grafton St","42.40994213011757","-71.14009319811885","Arlington","Yes","0"
"V32004","Broadway at Lynde St","42.39648358247693","-71.06546759905541","Everett","Yes","15"
"V32008","Broadway at Maple St","42.410346909767846","-71.05260457852637","Everett","Yes","14"
"S32044","Broadway Opposite Norwood Ave  (Temp Winter Station)","42.396764","-71.102376","Somerville","Yes","15"
"S32014","Broadway St at Mt Pleasant St","42.386141411639564","-71.07828140258789","Somerville","Yes","19"
"K32005","Brookline Town Hall","42.33376472623494","-71.12046446660315","Brookline","Yes","15"
"K32003","Brookline Village - Station Street at MBTA","42.33274392304887","-71.11626680949485","Brookline","Yes","19"
"A32023","Bunker Hill Community College","42.37408991426522","-71.06905996799469","Boston","Yes","23"
"B32020","Burlington Ave at Brookline Ave","42.345733","-71.100694","Boston","Yes","0"
"M32052","Cambridge Dept. of Public Works -147 Hampshire St.","42.37119727759414","-71.09759867191315","Cambridge","Yes","19"
"M32013","Cambridge Main Library at Broadway / Trowbridge St","42.373379","-71.111075","Cambridge","Yes","19"
"M32007","Cambridge St - at Columbia St / Webster Ave","42.372969","-71.094445","Cambridge","Yes","15"
"D32000","Cambridge St at Joy St","42.36125721646537","-71.06528744101524","Boston","Yes","15"
"M32019","CambridgeSide Galleria - CambridgeSide PL at Land Blvd","42.366981","-71.076472","Cambridge","Yes","15"
"A32046","Canal St at Causeway St","42.36530094929082","-71.06092190993877","Boston","Yes","0"
"M32012","Central Sq Post Office / Cambridge City Hall at Mass Ave / Pleasant St","42.366426","-71.105495","Cambridge","Yes","17"
"M32011","Central Square at Mass Ave / Essex St","42.36507","-71.1031","Cambridge","Yes","19"
"A32041","Central Square East Boston","42.37544912547037","-71.03918548682486","Boston","Yes","15"
"C32086","Centre St at Parkway YMCA","42.28277901074054","-71.15728851416861","Boston","Yes","19"
"E32008","Centre St at Seaverns Ave","42.3121203","-71.1142981","Boston","Yes","0"
"C32085","Centre St at W. Roxbury Post Office","42.286331991127746","-71.15344755369732","Boston","Yes","19"
"N32000","Centre St at Washington St","42.35574334805774","-71.18641942508475","Newton","Yes","11"
"D32016","Charles Circle - Charles St at Cambridge St","42.36079296858265","-71.07118962337152","Boston","Yes","19"
"D32039","Charlestown Navy Yard","42.374124549426526","-71.05481199938367","Boston","Yes","23"
"A32027","Chelsea St at Saratoga St","42.379772","-71.027448","Boston","Yes","15"
"V32009","Chelsea St at Vine St","42.40328056972533","-71.04762639859473","Everett","Yes","15"
"M32049","Child St at North St","42.37150494100319","-71.07249312120985","Cambridge","Yes","23"
"D32015","Chinatown Gate Plaza","42.351356","-71.059367","Boston","Yes","19"
"D32019","Chinatown T Stop","42.352409","-71.062679","Boston","Yes","19"
"B32005","Christian Science Plaza - Massachusetts Ave at Westland Ave","42.3436658245146","-71.08582377433777","Boston","Yes","19"
"S32010","Clarendon Hill at Broadway","42.406302","-71.132446","Somerville","Yes","0"
"D32047","Clarendon St at Newbury St","42.35155308466532","-71.0756903143556","Boston","Yes","0"
"B32035","Cleveland Circle","42.335543083570826","-71.15061519672052","Boston","Yes","15"
"C32055","Codman Square Library","42.2873611","-71.071111","Boston","Yes","17"
"B32006","Colleges of the Fenway - Fenway at Avenue Louis Pasteur","42.34011512249236","-71.10061883926392","Boston","Yes","15"
"B32029","Columbia Rd at Ceylon St","42.309572","-71.0729","Boston","Yes","15"
"C32052","Columbia Rd at Tierney Community Center","42.33023070528729","-71.05060093123029","Boston","Yes","19"
"C32077","Columbus Ave at W. Canton St","42.34474224772802","-71.07648162175792","Boston","Yes","19"
"A32002","Commonwealth Ave at Agganis Way","42.35169201885973","-71.11903488636017","Boston","Yes","15"
"K32006","Commonwealth Ave At Babcock St","42.35154734791375","-71.12126246094704","Brookline","Yes","15"
"D32033","Commonwealth Ave at Chiswick Rd","42.34024644768889","-71.15168806174552","Boston","Yes","19"
"A32017","Commonwealth Ave at Griggs St","42.34922469338298","-71.13275302578586","Boston","Yes","15"
"D32034","Commonwealth Ave at Kelton St","42.348358628170445","-71.13997217276847","Boston","Yes","15"
"S32022","Community Path at Cedar Street","42.39407223665884","-71.11133694648743","Somerville","Yes","15"
"S32040","Community Path at Lowell St","42.392525","-71.105587","Somerville","Yes","19"
"D32009","Congress St at Boston City Hall","42.36041774637169","-71.05752243543975","Boston","Yes","23"
"C32032","Congress St at Northern Ave","42.3481","-71.03764","Boston","Yes","0"
"C32010","Congress St at Sleeper St","42.351004495946704","-71.04930013418198","Boston","Yes","0"
"S32004","Conway Park - Somerville Avenue","42.383405","-71.107593","Somerville","Yes","23"
"S32045","Conway Park @ Bleachery Ct (Temp Winter Station)","42.3836409294306","-71.10868692398071","Somerville","Yes","19"
"K32001","Coolidge Corner - Beacon St at Centre St","42.341598","-71.123338","Brookline","Yes","19"
"W32001","Coolidge Sq.","42.372076114722866","-71.15683130688922","Watertown","Yes","12"
"D32005","Copley Square - Dartmouth St at Boylston St","42.34992828230057","-71.07739206866427","Boston","Yes","33"
"D32010","Cross St at Hanover St","42.362811","-71.056067","Boston","Yes","19"
"E32001","Curtis Hall - South St at Centre St","42.309054","-71.11543","Boston","Yes","15"
"K32009","Cypress St at Clark Playground","42.32784317478686","-71.1253622174263","Brookline","Yes","0"
"M32030","Dana Park","42.361780439606044","-71.10809952020645","Cambridge","Yes","19"
"M32031","Danehy Park","42.388966","-71.132788","Cambridge","Yes","17"
"D32045","Dartmouth St at Newbury St","42.35096144421219","-71.07782810926437","Boston","Yes","19"
"S32006","Davis Square","42.396969","-71.123024","Somerville","Yes","25"
"A32051","Day Sq","42.379295","-71.027733","Boston","Yes","16"
"B32037","Deerfield St at Commonwealth Ave","42.34924376955301","-71.09728209692548","Boston","Yes","19"
"M32066","Discovery Park - 30 Acorn Park Drive","42.39790817368333","-71.14797130814623","Cambridge","Yes","23"
"C32009","Dorchester Ave at Gillette Park","42.344040510016356","-71.05737626552582","Boston","Yes","15"
"C32066","Dorchester Ave at King St","42.29175621632091","-71.0625918023743","Boston","Yes","0"
"B32017","Dudley Square - Bolling Building","42.329842993518085","-71.08386572459494","Boston","Yes","18"
"C32015","Dudley Town Common - Mt Pleasant Ave at Blue Hill Ave","42.325333","-71.075354","Boston","Yes","0"
"C32018","E Cottage St at Columbia Rd","42.320561","-71.06198","Boston","Yes","0"
"A32031","East Boston Neighborhood Health Center - 20 Maverick Square","42.369536","-71.039431","Boston","Yes","16"
"S32017","East Somerville Library (Broadway and Illinois)","42.3876281075134","-71.08318716287613","Somerville","Yes","15"
"S32038","Edgerly Education Center","42.38717463348314","-71.08714388528824","Somerville","Yes","15"
"A32022","Edwards Playground - Main St at Eden St","42.378965","-71.068607","Boston","Yes","19"
"M32034","EF - North Point Park","42.369885","-71.069957","Cambridge","Yes","23"
"E32004","Egleston Square - Atherton St at Washington St","42.315692","-71.098634","Boston","Yes","15"
"S32039","Elm St at White St","42.38952436305763","-71.11694140364307","Somerville","Yes","0"
"V32005","Encore","42.39329263225162","-71.0724475979805","Everett","Yes","15"
"V32003","Everett Square (Broadway at Chelsea St)","42.40725945172653","-71.05546381333625","Everett","Yes","14"
"A32000","Fan Pier","42.3533905070523","-71.04457139968872","Boston","Yes","15"
"A32038","Faneuil St at Arlington St","42.35276620545606","-71.15988485533308","Boston","Yes","15"
"C32051","Farragut Rd at E. 6th St","42.3334","-71.02495","Boston","Yes","23"
"C32041","Fields Corner T Stop","42.300664","-71.060295","Boston","Yes","15"
"E32010","Forest Hills","42.300923","-71.114249","Boston","Yes","40"
"S32015","Foss Park","42.39108438146733","-71.09039425849915","Somerville","Yes","15"
"C32037","Four Corners - 157 Washington St","42.304127927390155","-71.07929527759552","Boston","Yes","11"
"C32027","Franklin Park - Seaver St at Humboldt Ave","42.309796","-71.092225","Boston","Yes","15"
"C32030","Franklin Park Zoo - Franklin Park Rd at Blue Hill Ave","42.303469","-71.085347","Boston","Yes","14"
"M32051","Fresh Pond Reservation","42.38267827521855","-71.143478951426","Cambridge","Yes","17"
"M32072","Galileo Galilei Way at Main Street","42.363003781560096","-71.08974037706501","Cambridge","Yes","19"
"C32040","Gallivan Blvd at Adams St","42.28297567840305","-71.05466698296368","Boston","Yes","15"
"C32090","Geiger Gibson Community Health Center","42.31886468217537","-71.04536797860419","Boston","Yes","19"
"V32006","Glendale Square (Ferry St at Broadway)","42.41427294293992","-71.04479655659816","Everett","Yes","15"
"A32034","Glendon St at Condor St","42.38240377674137","-71.03024303913116","Boston","Yes","0"
"A32049","Gove St at Orleans St","42.37057753242139","-71.03558540113227","Boston","Yes","19"
"B32032","Government Center - Cambridge St at Court St","42.3598253979878","-71.05979576244862","Boston","Yes","23"
"M32068","Graham and Parks School ? Linnaean St at Walker St","42.38294430172271","-71.12449831038248","Cambridge","Yes","19"
"E32005","Green Street T Stop - Green St at Amory St","42.310579","-71.107341","Boston","Yes","23"
"B32028","Grove Hall Library - 41 Geneva Ave","42.30791","-71.080952","Boston","Yes","15"
"S32019","Grove St at Community Path","42.396386809455","-71.12011306006025","Somerville","Yes","15"
"V32012","Hale Park","42.414962648832656","-71.05279301009432","Everett","Yes","11"
"D32043","Harrison Ave at Bennet St","42.34942609892521","-71.06209959843909","Boston","Yes","19"
"C32093","Harrison Ave at E. Dedham St","42.339194","-71.06975","Boston","Yes","19"
"C32057","Harrison Ave at Mullins Way","42.34521562115022","-71.0638403149278","Boston","Yes","19"
"D32035","Harvard Ave at Brainerd Rd","42.34953016890375","-71.13022770741735","Boston","Yes","15"
"M32016","Harvard Kennedy School at Bennett St / Eliot St","42.3722168027866","-71.12188071012497","Cambridge","Yes","23"
"M32020","Harvard Law School at Mass Ave / Jarvis St","42.379011","-71.119945","Cambridge","Yes","19"
"M32017","Harvard Square at Brattle St / Eliot St","42.373231","-71.120886","Cambridge","Yes","15"
"M32018","Harvard Square at Mass Ave/ Dunster","42.373268","-71.118579","Cambridge","Yes","19"
"M32055","Harvard St at Greene-Rose Heritage Park","42.36599432867437","-71.09522221614498","Cambridge","Yes","19"
"A32052","Harvard Stadium: N. Harvard St at Soldiers Field Rd","42.368019","-71.1242","Boston","Yes","15"
"M32023","Harvard University / SEAS Cruft-Pierce Halls at 29 Oxford St","42.377945","-71.116865","Cambridge","Yes","17"
"M32021","Harvard University Gund Hall at Quincy St / Kirkland St","42.376369","-71.114025","Cambridge","Yes","13"
"M32014","Harvard University Housing - 115 Putnam Ave at Peabody Terrace","42.366621","-71.114214","Cambridge","Yes","15"
"M32024","Harvard University Radcliffe Quadrangle at Shepard St / Garden St","42.380287","-71.125107","Cambridge","Yes","19"
"M32038","Harvard University River Houses at DeWolfe St / Cowperthwaite St","42.369121582065524","-71.1163867230971","Cambridge","Yes","21"
"D32026","Hayes Square - Vine St at Moulton St","42.377022","-71.056605","Boston","Yes","0"
"K32010","High St at Cypress St","42.32538435700882","-71.12177595532557","Brookline","Yes","3"
"B32003","HMS/HSPH - Avenue Louis Pasteur at Longwood Ave","42.3374174845973","-71.10286116600037","Boston","Yes","25"
"A32040","Honan Library","42.36027370454934","-71.12852452327388","Boston","Yes","15"
"B32033","Huntington Ave at Mass Art","42.336585554561154","-71.0988699646623","Boston","Yes","15"
"M32044","Huron Ave At Vassal Lane","42.381650612901176","-71.13426981498378","Cambridge","Yes","19"
"C32089","Hyde Park Ave at Walk Hill St","42.29606704649873","-71.11601199963843","Boston","Yes","15"
"E32003","Hyde Square - Barbara St at Centre St","42.32176525723952","-71.10984160567114","Boston","Yes","15"
"C32020","ID Building East","42.344827","-71.028664","Boston","Yes","17"
"C32021","ID Building West","42.344796","-71.031614","Boston","Yes","19"
"C32025","Ink Block - Harrison Ave at Herald St","42.345901","-71.063187","Boston","Yes","15"
"M32062","Inman Square at Springfield St.","42.37438408515815","-71.1001574621514","Cambridge","Yes","19"
"A32011","Innovation Lab - 125 Western Ave at Batten Way","42.36314498882458","-71.12298574307715","Boston","Yes","19"
"E32006","Jackson Square T Stop","42.32293117195949","-71.10014140605927","Boston","Yes","18"
"D32052","Jamaica St at South St","42.3060456272408","-71.11570891001975","Boston","Yes","19"
"K32004","JFK Crossing at Harvard St. / Thorndike St.","42.344952","-71.127351","Brookline","Yes","15"
"C32013","JFK/UMass T Stop","42.32033973515723","-71.05118036270142","Boston","Yes","15"
"V32013","Kearins Playground","42.406161241322444","-71.06041654944418","Everett","Yes","11"
"M32032","Kendall Street","42.363560158429884","-71.08216792345047","Cambridge","Yes","15"
"M32004","Kendall T","42.362427842912396","-71.08495473861694","Cambridge","Yes","23"
"B32010","Kenmore Square","42.348706","-71.097009","Boston","Yes","27"
"M32065","Kennedy-Longfellow School 158 Spring St","42.36955297756508","-71.08579014980933","Cambridge","Yes","19"
"M32009","Lafayette Square at Mass Ave / Main St / Columbia St","42.36346469304347","-71.10057324171066","Cambridge","Yes","15"
"B32015","Landmark Center - Brookline Ave at Park Dr","42.343690557197476","-71.10235286881107","Boston","Yes","15"
"N32008","Langley Lot","42.330528","-71.192861","Newton","Yes","11"
"B32058","Lansdowne T Stop","42.34734473177431","-71.1001680795016","Boston","Yes","27"
"M32001","Lechmere Station at Cambridge St / First St","42.370677","-71.076529","Cambridge","Yes","19"
"M32039","Lesley University","42.38674802045056","-71.11901879310608","Cambridge","Yes","15"
"D32006","Lewis Wharf at Atlantic Ave","42.363871","-71.050877","Boston","Yes","19"
"M32025","Linear Park - Mass. Ave. at Cameron Ave. ","42.397828","-71.130516","Cambridge","Yes","19"
"L32002","Linwood St at Minuteman Bikeway","42.40935395518158","-71.14906518727366","Arlington","Yes","3"
"A32004","Longwood Ave at Binney St","42.338629","-71.1065","Boston","Yes","15"
"M32022","Lower Cambridgeport at Magazine St / Riverside Rd","42.357218503176526","-71.1138716340065","Cambridge","Yes","19"
"S32013","Magoun Square at Trum Field","42.39778339961249","-71.10594004465383","Somerville","Yes","15"
"D32020","Main St at Austin St","42.375603","-71.064608","Boston","Yes","11"
"D32036","Main St at Baldwin St","42.380857","-71.070629","Boston","Yes","19"
"D32038","Main St at Thompson Sq","42.374878467440965","-71.06383498767171","Boston","Yes","15"
"K32012","Marion St at Harvard St","42.33978052668946","-71.12133350232398","Brookline","Yes","0"
"A32048","Marion St at White St","42.38066930871317","-71.03907315999093","Boston","Yes","0"
"E32012","Martha Eliot Health Center","42.324173","-71.10196","Boston","Yes","16"
"M32061","Mass Ave at Albany St","42.36135837662249","-71.09670273977825","Cambridge","Yes","18"
"L32003","Mass Ave at Grafton St","42.40726052447951","-71.14382132425817","Arlington","Yes","0"
"M32056","Mass Ave at Hadley/Walden","42.39120971915856","-71.12260755160605","Cambridge","Yes","19"
"C32063","Mass Ave T Station","42.34135615767354","-71.08336953450817","Boston","Yes","16"
"C32004","Massachusetts Ave at Columbus Ave","42.33949453726166","-71.0802078062261","Boston","Yes","14"
"C32050","Mattapan Library","42.2773889","-71.09325","Boston","Yes","15"
"C32045","Mattapan T Stop","42.267902","-71.093641","Boston","Yes","15"
"A32030","Maverick Square - Lewis Mall","42.368844082898356","-71.03977829217911","Boston","Yes","33"
"A32044","Maverick St at Massport Path","42.36774122306014","-71.0333597474255","Boston","Yes","15"
"D32037","Medford St at Charlestown BCYF","42.380429474494896","-71.06055721676967","Boston","Yes","19"
"M32006","MIT at Mass Ave / Amherst St","42.3581","-71.093198","Cambridge","Yes","27"
"M32070","MIT Carleton St at Amherst St","42.36054174140606","-71.08669817447662","Cambridge","Yes","27"
"M32071","MIT Hayward St at Amherst St","42.36085937353302","-71.08551858007559","Cambridge","Yes","27"
"M32041","MIT Pacific St at Purrington St","42.35957320109044","-71.10129475593567","Cambridge","Yes","19"
"M32005","MIT Stata Center at Vassar St / Main St","42.3621312344991","-71.09115600585936","Cambridge","Yes","35"
"M32042","MIT Vassar St","42.355601213279265","-71.10394477844238","Cambridge","Yes","25"
"B32023","MLK Blvd at Washington St","42.32143814183195","-71.09126061201096","Boston","Yes","15"
"M32043","Mt Auburn","42.37478628706384","-71.13320231437683","Cambridge","Yes","19"
"C32080","Mt. Hope St at Hyde Park Ave","42.28484472443536","-71.11874517062459","Boston","Yes","0"
"D32017","Mugar Way at Beacon St","42.355536284897084","-71.07286870479584","Boston","Yes","19"
"C32023","Murphy Skating Rink - 1880 Day Blvd","42.336448","-71.023739","Boston","Yes","19"
"M32045","Museum of Science","42.36769018024484","-71.07116281986237","Cambridge","Yes","19"
"A32025","Nashua Street at Red Auerbach Way","42.365673","-71.064263","Boston","Yes","37"
"B32027","NCAAA - Walnut Ave at Crawford St","42.316902","-71.091946","Boston","Yes","15"
"D32001","New Balance - 20 Guest St","42.35732921867706","-71.14673539996147","Boston","Yes","15"
"B32000","Newbury St at Hereford St","42.348717","-71.085954","Boston","Yes","0"
"C32022","Newmarket Square T Stop - Massachusetts Ave at Newmarket Square","42.326599","-71.066498","Boston","Yes","15"
"N32002","Nonantum Library","42.36068455768156","-71.20146199598821","Newton","Yes","11"
"C32078","Northbourne Rd at Hyde Park Ave","42.29118034790426","-71.117736660035","Boston","Yes","0"
"B32012","Northeastern University - North Parking Lot","42.341814","-71.090179","Boston","Yes","0"
"D32031","Oak Square - 615 Washington St","42.35057","-71.166491","Boston","Yes","15"
"B32036","One Brigham Circle","42.333922701369964","-71.10446508982932","Boston","Yes","15"
"M32003","One Broadway / Kendall Sq at Main St / 3rd St","42.36224178650923","-71.0831107199192","Cambridge","Yes","23"
"M32002","One Kendall Square at Hampshire St / Portland St","42.366277","-71.09169","Cambridge","Yes","19"
"M32053","One Memorial Drive","42.361619320766856","-71.0804355052096","Cambridge","Yes","19"
"A32035","Orient Heights T Stop - Bennington St at Saratoga St","42.386781","-71.006098","Boston","Yes","19"
"S32009","Packard Ave at Powderhouse Blvd","42.40449","-71.123413","Somerville","Yes","15"
"A32012","Packard's Corner - Commonwealth Ave at Brighton Ave","42.352261","-71.123831","Boston","Yes","27"
"A32008","Park Dr at Buswell St","42.347241","-71.105301","Boston","Yes","15"
"D32042","Park Plaza at Charles St S.","42.351828068920675","-71.06781138111728","Boston","Yes","19"
"C32039","Park St at Norwell St","42.29442578670662","-71.07821760713703","Boston","Yes","0"
"S32034","Perry Park","42.37927324600841","-71.10341902831351","Somerville","Yes","19"
"M32029","Porter Square Station","42.387995","-71.119084","Cambridge","Yes","19"
"A32050","Porzio Park","42.364119035231525","-71.02876782417297","Boston","Yes","17"
"D32012","Post Office Square","42.35585435522005","-71.05459745998814","Boston","Yes","0"
"S32008","Powder House Circle - Nathan Tufts Park","42.400877","-71.116772","Somerville","Yes","15"
"C32007","Prudential Center - 101 Huntington Ave","42.34652003998412","-71.08065776545118","Boston","Yes","18"
"A32026","Purchase St at Pearl St","42.354659","-71.053181","Boston","Yes","19"
"L32001","Railroad Lot and Minuteman Bikeway","42.416084844039744","-71.15315407052549","Arlington","Yes","0"
"R32006","Revere City Hall","42.40741","-71.0139","Revere","Yes","11"
"R32007","Revere Public Library","42.408088","-71.008942","Revere","Yes","11"
"M32036","Rindge Avenue - O'Neill Library","42.392766","-71.129042","Cambridge","Yes","19"
"C32058","Ring Rd","42.348278385426255","-71.08044855314802","Boston","Yes","15"
"M32035","Rogers St & Land Blvd","42.36575798214837","-71.07699394226073","Cambridge","Yes","19"
"C32047","Roslindale Village - South St","42.287072","-71.127754","Boston","Yes","15"
"C32046","Roslindale Village - Washington St","42.28630716010807","-71.12820532182013","Boston","Yes","15"
"D32008","Rowes Wharf at Atlantic Ave","42.357143","-71.050699","Boston","Yes","15"
"C32001","Roxbury Crossing T Stop - Columbus Ave at Tremont St","42.331184","-71.095171","Boston","Yes","23"
"B32022","Roxbury YMCA - Warren St at MLK Blvd","42.31787329345602","-71.08243077993393","Boston","Yes","10"
"B32002","Ruggles T Stop - Columbus Ave at Melnea Cass Blvd","42.33624444796878","-71.08798563480377","Boston","Yes","18"
"C32031","Ryan Playground - Dorchester Ave at Harbor View St","42.317642","-71.056664","Boston","Yes","0"
"E32007","S Huntington Ave at Heath St","42.32760387040573","-71.11089169979095","Boston","Yes","15"
"C32033","Savin Hill T Stop - S Sydney St at Bay St","42.3106","-71.0539","Boston","Yes","14"
"C32036","Seaport Blvd at Sleeper St","42.35317809186252","-71.04817356923377","Boston","Yes","15"
"B32014","Seaport Hotel - Congress St at Seaport Ln","42.34881026188269","-71.04167744055303","Boston","Yes","19"
"B32007","Seaport Square - Seaport Blvd at Northern Ave","42.35148193460858","-71.04436084628105","Boston","Yes","19"
"M32063","Sennott Park Broadway at Norfolk Street","42.36860524248197","-71.09930185605663","Cambridge","Yes","19"
"D32048","Shawmut Ave at Oak St W","42.34854543411198","-71.06559185315746","Boston","Yes","15"
"E32009","Shawmut T Stop","42.292917","-71.06575","Boston","Yes","19"
"M32047","Sidney Research Campus/Erie Street at Waverly","42.35775309465199","-71.10393404960632","Cambridge","Yes","19"
"D32032","Silber Way","42.34949599514002","-71.10057592391968","Boston","Yes","0"
"M32069","Smith Pl at Wilson Rd","42.39239749145834","-71.15058331757609","Cambridge","Yes","19"
"A32006","Soldiers Field Park - 111 Western Ave","42.364263440638524","-71.1182756971175","Boston","Yes","15"
"S32001","Somerville City Hall","42.386844","-71.09812","Somerville","Yes","19"
"S32036","Somerville City Hall Annex","42.39189811591863","-71.09745375830244","Somerville","Yes","0"
"C32017","South Boston Library - 646 E Broadway","42.335741","-71.03877","Boston","Yes","15"
"A32009","South End Library - Tremont St at W Newton St","42.341332","-71.076847","Boston","Yes","15"
"A32010","South Station - 700 Atlantic Ave","42.352175","-71.055547","Boston","Yes","47"
"D32023","Spaulding Rehabilitation Hospital - Charlestown Navy Yard","42.378338","-71.048927","Boston","Yes","19"
"C32087","Spring St at Powell St","42.277484442008216","-71.16341467955863","Boston","Yes","19"
"K32007","St Mary's","42.346197076555455","-71.10728681087494","Brookline","Yes","15"
"C32024","State Street at Channel Center","42.344137","-71.052608","Boston","Yes","19"
"D32041","Stony Brook T Stop","42.316966","-71.104374","Boston","Yes","15"
"D32049","Stuart St at Berkeley St","42.34954403114251","-71.0724207387284","Boston","Yes","19"
"D32011","Stuart St at Charles St","42.351146","-71.066289","Boston","Yes","18"
"D32053","Sullivan Square","42.384452256358436","-71.07514854529654","Boston","Yes","19"
"A32013","Surface Rd at India St","42.358155","-71.052163","Boston","Yes","19"
"A32042","Surface Rd at Summer St","42.35294569782581","-71.05656400803126","Boston","Yes","27"
"V32007","Swan St. Park","42.412504507772105","-71.05842225271772","Everett","Yes","15"
"C32064","Sydney St at Carson St","42.32039374304257","-71.05355408051764","Boston","Yes","19"
"C32043","Talbot Ave At Blue Hill Ave","42.2945833","-71.087111","Boston","Yes","15"
"K32008","Tappan St at Brookline Hills MBTA","42.332096063019364","-71.128458827734","Brookline","Yes","15"
"S32011","Teele Square","42.40231703379005","-71.12671129423688","Somerville","Yes","0"
"E32011","The Dimock Center","42.3193094317828","-71.09639923859504","Boston","Yes","16"
"A32033","The Eddy - New St at Sumner St","42.370744","-71.044201","Boston","Yes","15"
"C32028","The Lawn on D","42.344792","-71.044024","Boston","Yes","19"
"D32054","The Overlook at St. Gabriel's","42.34679008347347","-71.14549813806661","Boston","Yes","19"
"C32049","Thetford Ave at Norfolk St","42.286212948246096","-71.07942931372236","Boston","Yes","0"
"M32048","Third at Binney","42.36544486137399","-71.08277142047882","Cambridge","Yes","15"
"L32005","Thorndike Field at Minuteman Bikeway","42.40016804853787","-71.14456963094199","Arlington","Yes","11"
"C32000","Tremont St at E Berkeley St","42.345392","-71.069616","Boston","Yes","19"
"B32056","Tremont St at Hamilton Pl","42.35668334969929","-71.06166645884514","Boston","Yes","19"
"C32056","Tremont St at Northampton St","42.33889559644165","-71.08149975611013","Boston","Yes","19"
"C32060","Tremont St at W. Dedham St","42.34254913737952","-71.07421449387857","Boston","Yes","15"
"D32014","Tremont St at West St","42.354979","-71.063348","Boston","Yes","15"
"C32035","Troy Boston","42.343749","-71.062256","Boston","Yes","14"
"S32042","Trum Field @ Cedar St (Temp Winter Station)","42.398444","-71.107833","Somerville","Yes","15"
"A32001","Union Square - Brighton Ave at Cambridge St","42.353334","-71.137313","Boston","Yes","19"
"S32002","Union Square - Somerville","42.379584","-71.095236","Somerville","Yes","19"
"S32041","Union Square East (Temp Winter Station)","42.380078","-71.090098","Somerville","Yes","19"
"N32004","Union St at Herrick Rd ? Newton Centre Green Line","42.32956868185623","-71.19367271661758","Newton","Yes","11"
"C32014","University of Massachusetts Boston - Campus Center","42.31218918475612","-71.03648586203235","Boston","Yes","19"
"M32040","University Park","42.36264779118595","-71.10006093978882","Cambridge","Yes","19"
"C32019","Uphams Corner","42.31727474327453","-71.06537003967787","Boston","Yes","0"
"B32025","Uphams Corner T Stop - Magnolia St at Dudley St","42.318697341722434","-71.0697814822197","Boston","Yes","0"
"M32057","Vassal Lane at Tobin/VLUS","42.3839322489048","-71.13961271959852","Cambridge","Yes","19"
"M32050","Verizon Innovation Hub 10 Ware Street","42.37250864997261","-71.11305356025696","Cambridge","Yes","19"
"C32029","W Broadway at D St","42.3391085","-71.0514432","Boston","Yes","23"
"C32016","W Broadway at Dorchester St","42.335958979433094","-71.04622899561036","Boston","Yes","17"
"B32030","Walnut Ave at Warren St","42.324081","-71.083235","Boston","Yes","0"
"D32021","Warren St at Chelsea St","42.371848","-71.060292","Boston","Yes","23"
"V32010","Wasgatt Playground","42.4093300667225","-71.06381878293178","Everett","Yes","15"
"S32043","Washington St @ New Washington St (Temp Winter Station)","42.381056","-71.087083","Somerville","Yes","15"
"C32042","Washington St at Bradlee St","42.299164979365884","-71.07345871645519","Boston","Yes","0"
"D32029","Washington St at Brock St","42.3489528466951","-71.16031676530838","Boston","Yes","15"
"N32001","Washington St at Crafts St","42.35389024396587","-71.19943707257335","Newton","Yes","11"
"C32081","Washington St at Denton Terr","42.280728147169015","-71.13423757273267","Boston","Yes","0"
"A32037","Washington St at Egremont Rd","42.34286835071959","-71.14127840855872","Boston","Yes","0"
"C32084","Washington St at Fuller St","42.281986277339136","-71.07147924620222","Boston","Yes","0"
"K32011","Washington St at Griggs Rd","42.338334237199014","-71.13050930220197","Brookline","Yes","0"
"C32005","Washington St at Lenox St","42.3350989929096","-71.07903778553009","Boston","Yes","15"
"B32026","Washington St at Melnea Cass Blvd","42.332817","-71.081198","Boston","Yes","19"
"C32067","Washington St at Peters Park","42.34303291130257","-71.06688730436872","Boston","Yes","0"
"C32006","Washington St at Rutland St","42.338514601785995","-71.07404083013535","Boston","Yes","27"
"C32038","Washington St at Talbot Ave","42.290333","-71.071806","Boston","Yes","17"
"C32083","Washington St at Walsh Playground","42.277194696397906","-71.06955613950048","Boston","Yes","0"
"D32002","Washington St at Waltham St","42.341574718737476","-71.06890439987183","Boston","Yes","15"
"C32034","Watermark Seaport - Boston Wharf Rd at Seaport Blvd","42.351586001198456","-71.04569256305693","Boston","Yes","15"
"W32002","Watertown Sq","42.365260317694485","-71.18573324459247","Watertown","Yes","11"
"W32005","Watertown Town Hall","42.367621","-71.187936","Watertown","Yes","11"
"B32021","Wentworth Institute of Technology - Huntington Ave at Vancouver St","42.33758601097239","-71.09627097845076","Boston","Yes","14"
"D32022","West End Park","42.36590788445084","-71.06446668505669","Boston","Yes","35"
"N32005","West Newton","42.349600498642076","-71.2262749671936","Newton","Yes","15"
"N32006","West Newton Armory","42.34947178098653","-71.22000678911718","Newton","Yes","11"
"A32043","Western Ave at Richardson St","42.361787410661876","-71.14393111327445","Boston","Yes","0"
"B32059","Whittier St Health Center","42.332862884862635","-71.09218861916816","Boston","Yes","19"
"D32040","Williams St at Washington St","42.306539","-71.107669","Boston","Yes","19"
"S32005","Wilson Square","42.38567578752914","-71.11412136298895","Somerville","Yes","15"
